$GNGGA,212158.000,4221.86813,N,07106.54444,W,1,04,9.7,-26.4,M,0.0,M,,*7E
$GNGLL,4221.86813,N,07106.54444,W,212158.000,A,A*5C
$GPGSA,A,3,01,03,21,22,,,,,,,,,12.0,9.7,7.1*08
$BDGSA,A,3,,,,,,,,,,,,,12.0,9.7,7.1*18
$GPGSV,3,1,11,01,43,049,34,03,34,109,29,06,23,220,,11,,,30*44
$GPGSV,3,2,11,14,80,158,,17,63,307,,19,40,281,,21,22,049,30*74
$GPGSV,3,3,11,22,34,076,25,28,88,196,,30,20,202,*4D
$BDGSV,1,1,00*68
$GNRMC,212158.000,A,4221.86813,N,07106.54444,W,0.00,254.14,270321,,,A*68
$GNVTG,254.14,T,,M,0.00,N,0.00,K,A*25
$GNZDA,212158.000,27,03,2021,00,00*42
$GPTXT,01,01,01,ANTENNA OPEN*25



$GNGGA,212159.000,4221.86821,N,07106.54363,W,1,04,9.7,-25.8,M,0.0,M,,*73
$GNGLL,4221.86821,N,07106.54363,W,212159.000,A,A*5E
$GPGSA,A,3,01,03,21,22,,,,,,,,,12.0,9.7,7.1*08
$BDGSA,A,3,,,,,,,,,,,,,12.0,9.7,7.1*18
$GPGSV,3,1,11,01,43,049,34,03,34,109,29,06,23,220,,11,,,30*44
$GPGSV,3,2,11,14,80,158,,17,63,307,,19,40,281,,21,22,049,30*74
$GPGSV,3,3,11,22,34,076,25,28,88,196,,30,20,202,*4D
$BDGSV,1,1,00*68
$GNRMC,212159.000,A,4221.86821,N,07106.54363,W,0.00,254.14,270321,,,A*6A
$GNVTG,254.14,T,,M,0.00,N,0.00,K,A*25
$GNZDA,212159.000,27,03,2021,00,00*43
$GPTXT,01,01,01,ANTENNA OPEN*25
$GNGGA,212200.000,4221.86827,N,07106.54306,W,1,04,9.7,-25.4,M,0.0,M,,*75
$GNGLL,4221.86827,N,07106.54306,W,212200.000,A,A*54
$GPGSA,A,3,01,03,21,22,,,,,,,,,12.0,9.7,7.1*08
$BDGSA,A,3,,,,,,,,,,,,,12.0,9.7,7.1*18
$GPGSV,3,1,11,01,43,049,34,03,34,109,29,06,23,220,,11,,,30*44
$GPGSV,3,2,11,14,80,158,,17,63,307,,19,40,281,,21,22,049,30*74
$GPGSV,3,3,11,22,34,076,24,28,88,196,,30,20,202,*4C
$BDGSV,1,1,00*68
$GNRMC,212200.000,A,4221.86827,N,07106.54306,W,0.00,254.14,270321,,,A*60
$GNVTG,254.14,T,,M,0.00,N,0.00,K,A*25
$GNZDA,212200.000,27,03,2021,00,00*4C
$GPTXT,01,01,01,ANTENNA OPEN*25
$GNGGA,212201.000,4221.86836,N,07106.54222,W,1,04,9.7,-24.8,M,0.0,M,,*7E
$GNGLL,4221.86836,N,07106.54222,W,212201.000,A,A*52
$GPGSA,A,3,01,03,21,22,,,,,,,,,12.0,9.7,7.1*08
$BDGSA,A,3,,,,,,,,,,,,,12.0,9.7,7.1*18
$GPGSV,3,1,11,01,43,049,34,03,34,109,29,06,23,220,,11,,,30*44
$GPGSV,3,2,11,14,80,158,,17,63,307,,19,40,281,,21,22,049,30*74
$GPGSV,3,3,11,22,34,076,24,28,88,196,,30,20,202,*4C
$BDGSV,1,1,00*68
$GNRMC,212201.000,A,4221.86836,N,07106.54222,W,0.00,254.14,270321,,,A*66
$GNVTG,254.14,T,,M,0.00,N,0.00,K,A*25
$GNZDA,212201.000,27,03,2021,00,00*4D
$GPTXT,01,01,01,ANTENNA OPEN*25
$GNGGA,212202.000,4221.86843,N,07106.54160,W,1,04,9.7,-24.3,M,0.0,M,,*71
$GNGLL,4221.86843,N,07106.54160,W,212202.000,A,A*56
$GPGSA,A,3,01,03,21,22,,,,,,,,,12.0,9.7,7.1*08
$BDGSA,A,3,,,,,,,,,,,,,12.0,9.7,7.1*18
$GPGSV,3,1,11,01,43,049,34,03,34,109,29,06,23,220,,11,,,30*44
$GPGSV,3,2,11,14,80,158,,17,63,307,,19,40,281,,21,22,049,30*74
$GPGSV,3,3,11,22,34,076,24,28,88,196,,30,20,202,*4C
$BDGSV,1,1,00*68
$GNRMC,212202.000,A,4221.86843,N,07106.54160,W,0.00,254.14,270321,,,A*62
$GNVTG,254.14,T,,M,0.00,N,0.00,K,A*25
$GNZDA,212202.000,27,03,2021,00,00*4E
$GPTXT,01,01,01,ANTENNA OPEN*25
$GNGGA,212203.000,4221.86851,N,07106.54099,W,1,04,9.7,-23.9,M,0.0,M,,*79
$GNGLL,4221.86851,N,07106.54099,W,212203.000,A,A*53
$GPGSA,A,3,01,03,21,22,,,,,,,,,12.0,9.7,7.1*08
$BDGSA,A,3,,,,,,,,,,,,,12.0,9.7,7.1*18
$GPGSV,3,1,11,01,43,049,34,03,34,109,29,06,23,220,,11,,,30*44
$GPGSV,3,2,11,14,80,158,,17,63,307,,19,40,281,,21,22,049,30*74
$GPGSV,3,3,11,22,34,076,24,28,88,196,,30,20,202,*4C
$BDGSV,1,1,00*68
$GNRMC,212203.000,A,4221.86851,N,07106.54099,W,0.00,254.14,270321,,,A*67
$GNVTG,254.14,T,,M,0.00,N,0.00,K,A*25
$GNZDA,212203.000,27,03,2021,00,00*4F
$GPTXT,01,01,01,ANTENNA OPEN*25
$GNGGA,212204.000,4221.86853,N,07106.54073,W,1,04,9.7,-23.7,M,0.0,M,,*76
$GNGLL,4221.86853,N,07106.54073,W,212204.000,A,A*52
$GPGSA,A,3,01,03,21,22,,,,,,,,,12.0,9.7,7.1*08
$BDGSA,A,3,,,,,,,,,,,,,12.0,9.7,7.1*18
$GPGSV,3,1,11,01,43,049,34,03,34,109,29,06,23,220,,11,,,30*44
$GPGSV,3,2,11,14,80,157,,17,63,307,,19,40,281,,21,22,049,30*7B
$GPGSV,3,3,11,22,34,076,24,28,88,196,,30,20,202,*4C
$BDGSV,1,1,00*68
$GNRMC,212204.000,A,4221.86853,N,07106.54073,W,0.00,254.14,270321,,,A*66
$GNVTG,254.14,T,,M,0.00,N,0.00,K,A*25
$GNZDA,212204.000,27,03,2021,00,00*48
$GPTXT,01,01,01,ANTENNA OPEN*25
$GNGGA,212205.000,4221.86861,N,07106.53999,W,1,04,9.7,-23.2,M,0.0,M,,*79
$GNGLL,4221.86861,N,07106.53999,W,212205.000,A,A*58
$GPGSA,A,3,01,03,21,22,,,,,,,,,12.0,9.7,7.1*08
$BDGSA,A,3,,,,,,,,,,,,,12.0,9.7,7.1*18
$GPGSV,3,1,11,01,43,049,34,03,34,109,29,06,23,220,,11,,,30*44
$GPGSV,3,2,11,14,80,157,,17,63,307,,19,40,281,,21,22,049,30*7B
$GPGSV,3,3,11,22,34,076,24,28,88,196,,30,20,202,*4C
$BDGSV,1,1,00*68
$GNRMC,212205.000,A,4221.86861,N,07106.53999,W,0.00,254.14,270321,,,A*6C
$GNVTG,254.14,T,,M,0.00,N,0.00,K,A*25
$GNZDA,212205.000,27,03,2021,00,00*49
$GPTXT,01,01,01,ANTENNA OPEN*25
$GNGGA,212206.000,4221.86868,N,07106.53950,W,1,04,9.7,-22.8,M,0.0,M,,*7D
$GNGLL,4221.86868,N,07106.53950,W,212206.000,A,A*57
$GPGSA,A,3,01,03,21,22,,,,,,,,,12.0,9.7,7.1*08
$BDGSA,A,3,,,,,,,,,,,,,12.0,9.7,7.1*18
$GPGSV,3,1,11,01,43,049,34,03,34,109,29,06,23,220,,11,,,30*44
$GPGSV,3,2,11,14,80,157,,17,63,307,,19,40,281,,21,22,049,30*7B
$GPGSV,3,3,11,22,34,076,24,28,88,196,,30,20,202,*4C
$BDGSV,1,1,00*68
$GNRMC,212206.000,A,4221.86868,N,07106.53950,W,0.00,254.14,270321,,,A*63
$GNVTG,254.14,T,,M,0.00,N,0.00,K,A*25
$GNZDA,212206.000,27,03,2021,00,00*4A
$GPTXT,01,01,01,ANTENNA OPEN*25
$GNGGA,212207.000,4221.86874,N,07106.53903,W,1,04,9.7,-22.5,M,0.0,M,,*7A
$GNGLL,4221.86874,N,07106.53903,W,212207.000,A,A*5D
$GPGSA,A,3,01,03,21,22,,,,,,,,,12.0,9.7,7.1*08
$BDGSA,A,3,,,,,,,,,,,,,12.0,9.7,7.1*18
$GPGSV,3,1,11,01,43,049,33,03,34,109,29,06,23,220,,11,,,30*43
$GPGSV,3,2,11,14,80,157,,17,63,307,,19,40,281,,21,22,049,30*7B
$GPGSV,3,3,11,22,34,076,23,28,88,196,,30,20,202,*4B
$BDGSV,1,1,00*68
$GNRMC,212207.000,A,4221.86874,N,07106.53903,W,0.00,254.14,270321,,,A*69
$GNVTG,254.14,T,,M,0.00,N,0.00,K,A*25
$GNZDA,212207.000,27,03,2021,00,00*4B
$GPTXT,01,01,01,ANTENNA OPEN*25
$GNGGA,212208.000,4221.86838,N,07106.53858,W,1,04,9.7,-21.7,M,0.0,M,,*73
$GNGLL,4221.86838,N,07106.53858,W,212208.000,A,A*55
$GPGSA,A,3,01,03,21,22,,,,,,,,,12.0,9.7,7.1*08
$BDGSA,A,3,,,,,,,,,,,,,12.0,9.7,7.1*18
$GPGSV,3,1,11,01,43,049,33,03,34,109,29,06,23,220,,11,,,30*43
$GPGSV,3,2,11,14,80,157,,17,63,307,,19,40,281,,21,22,049,30*7B
$GPGSV,3,3,11,22,34,076,23,28,88,196,,30,20,202,*4B
$BDGSV,1,1,00*68
$GNRMC,212208.000,A,4221.86838,N,07106.53858,W,1.47,254.14,270321,,,A*63
$GNVTG,254.14,T,,M,1.47,N,2.72,K,A*20
$GNZDA,212208.000,27,03,2021,00,00*44
$GPTXT,01,01,01,ANTENNA OPEN*25
$GNGGA,212209.000,4221.86810,N,07106.53811,W,1,04,9.7,-21.3,M,0.0,M,,*71
$GNGLL,4221.86810,N,07106.53811,W,212209.000,A,A*53
$GPGSA,A,3,01,03,21,22,,,,,,,,,12.0,9.7,7.1*08
$BDGSA,A,3,,,,,,,,,,,,,12.0,9.7,7.1*18
$GPGSV,3,1,11,01,43,049,33,03,34,109,29,06,23,220,,11,,,29*4B
$GPGSV,3,2,11,14,80,157,,17,63,307,,19,40,281,,21,22,049,30*7B
$GPGSV,3,3,11,22,34,076,23,28,88,196,,30,20,202,*4B
$BDGSV,1,1,00*68
$GNRMC,212209.000,A,4221.86810,N,07106.53811,W,1.29,254.14,270321,,,A*6D
$GNVTG,254.14,T,,M,1.29,N,2.40,K,A*29
$GNZDA,212209.000,27,03,2021,00,00*45
$GPTXT,01,01,01,ANTENNA OPEN*25
$GNGGA,212210.000,4221.86812,N,07106.53707,W,1,04,9.7,-21.1,M,0.0,M,,*71
$GNGLL,4221.86812,N,07106.53707,W,212210.000,A,A*51
$GPGSA,A,3,01,03,21,22,,,,,,,,,12.0,9.7,7.1*08
$BDGSA,A,3,,,,,,,,,,,,,12.0,9.7,7.1*18
$GPGSV,3,1,11,01,43,049,33,03,34,109,29,06,23,220,,11,,,29*4B
$GPGSV,3,2,11,14,80,157,,17,63,307,,19,40,282,,21,22,049,30*78
$GPGSV,3,3,11,22,34,076,23,28,88,196,,30,20,202,*4B
$BDGSV,1,1,00*68
$GNRMC,212210.000,A,4221.86812,N,07106.53707,W,1.03,254.14,270321,,,A*67
$GNVTG,254.14,T,,M,1.03,N,1.90,K,A*2F
$GNZDA,212210.000,27,03,2021,00,00*4D
$GPTXT,01,01,01,ANTENNA OPEN*25
$GNGGA,212211.000,4221.86838,N,07106.53564,W,1,04,9.7,-20.6,M,0.0,M,,*79
$GNGLL,4221.86838,N,07106.53564,W,212211.000,A,A*5F
$GPGSA,A,3,01,03,21,22,,,,,,,,,12.0,9.7,7.1*08
$BDGSA,A,3,,,,,,,,,,,,,12.0,9.7,7.1*18
$GPGSV,3,1,11,01,43,049,33,03,34,109,29,06,23,220,,11,,,29*4B
$GPGSV,3,2,11,14,80,157,,17,63,307,,19,40,282,,21,22,049,30*78
$GPGSV,3,3,11,22,34,076,23,28,88,196,,30,20,202,*4B
$BDGSV,1,1,00*68
$GNRMC,212211.000,A,4221.86838,N,07106.53564,W,1.62,254.14,270321,,,A*6E
$GNVTG,254.14,T,,M,1.62,N,2.99,K,A*22
$GNZDA,212211.000,27,03,2021,00,00*4C
$GPTXT,01,01,01,ANTENNA OPEN*25
$GNGGA,212212.000,4221.86869,N,07106.53380,W,1,04,9.7,-18.7,M,0.0,M,,*78
